[
  {
    "id": 1,
    "status": 0,
    "name": "Nguyen Van A",
    "phone": "0978345123",
    "pickup": {
      "address": "35 Hoang Dieu, quan 4, ho chi minh",
      "latlng": {
        "latitude": 10.762454,
        "longitude": 106.702726
      }
    },
    "dropoff": {
      "address": "2 Bui Thi Xuan, quan 1, ho chi minh",
      "latlng": {
        "latitude": 10.772736,
        "longitude": 106.690711
      }
    }
  },
  {
    "id": 2,
    "status": 0,
    "name": "Tran Thi B",
    "phone": "0983456745",
    "pickup": {
      "address": "35 Nguyen Trai, quan 1, ho chi minh",
      "latlng": {
        "latitude": 10.770887,
        "longitude": 106.692707
      }
    },
    "dropoff": {
      "address": "125 Nguyen Thien Thuat, quan 3, ho chi minh",
      "latlng": {
        "latitude": 10.767863,
        "longitude": 106.680171
      }
    }
  },
  {
    "id": 3,
    "status": 0,
    "name": "Le Van C",
    "phone": "0126345867",
    "pickup": {
      "address": "15 Ton Dan, quan 4, ho chi minh",
      "latlng": {
        "latitude": 10.761783,
        "longitude": 106.707873
      }
    },
    "dropoff": {
      "address": "5 Dinh Tien Hoang, quan 1, ho chi minh",
      "latlng": {
        "latitude": 10.787214,
        "longitude": 106.700856
      }
    }
  },
  {
    "id": 4,
    "status": 0,
    "name": "Nguyen Thi D",
    "phone": "0126325985",
    "pickup": {
      "address": "128 Nguyen Thi Thap, quan 7, ho chi minh",
      "latlng": {
        "latitude": 10.739962,
        "longitude": 106.705359
      }
    },
    "dropoff": {
      "address": "43 Nguyen Thai Hoc, quan 1, ho chi minh",
      "latlng": {
        "latitude": 10.766144,
        "longitude": 106.696659
      }
    }
  },
  {
    "id": 5,
    "status": 0,
    "name": "Tran Van E",
    "phone": "0934586934",
    "pickup": {
      "address": "20 Cong Quynh, quan 1, ho chi minh",
      "latlng": {
        "latitude": 10.766254,
        "longitude": 106.688813
      }
    },
    "dropoff": {
      "address": "235 Ben Van Don, quan 4, ho chi minh",
      "latlng": {
        "latitude": 10.758949,
        "longitude": 106.694278
      }
    }
  }
]